[
  {"name":"N. Virginia","jurisdiction":"USA","region":"North America","lat":38.96,"lon":-77.45},
  {"name":"Ohio","jurisdiction":"USA","region":"North America","lat":40.37,"lon":-82.99},
  {"name":"Iowa","jurisdiction":"USA","region":"North America","lat":41.88,"lon":-93.10},
  {"name":"Oregon","jurisdiction":"USA","region":"North America","lat":45.52,"lon":-122.68},
  {"name":"Los Angeles","jurisdiction":"USA","region":"North America","lat":34.05,"lon":-118.24},
  {"name":"Dallas","jurisdiction":"USA","region":"North America","lat":32.78,"lon":-96.80},
  {"name":"Miami","jurisdiction":"USA","region":"North America","lat":25.76,"lon":-80.19},
  {"name":"Montreal","jurisdiction":"Canada","region":"North America","lat":45.50,"lon":-73.57},
  {"name":"Toronto","jurisdiction":"Canada","region":"North America","lat":43.65,"lon":-79.38},
  {"name":"Mexico City","jurisdiction":"Mexico","region":"North America","lat":19.43,"lon":-99.13},

  {"name":"Dublin","jurisdiction":"Ireland","region":"Europe","lat":53.35,"lon":-6.26},
  {"name":"London","jurisdiction":"UK","region":"Europe","lat":51.51,"lon":-0.13},
  {"name":"Frankfurt","jurisdiction":"Germany","region":"Europe","lat":50.11,"lon":8.68},
  {"name":"Berlin","jurisdiction":"Germany","region":"Europe","lat":52.52,"lon":13.40},
  {"name":"Amsterdam","jurisdiction":"Netherlands","region":"Europe","lat":52.37,"lon":4.90},
  {"name":"Paris","jurisdiction":"France","region":"Europe","lat":48.86,"lon":2.35},
  {"name":"Madrid","jurisdiction":"Spain","region":"Europe","lat":40.42,"lon":-3.70},
  {"name":"Milan","jurisdiction":"Italy","region":"Europe","lat":45.46,"lon":9.19},
  {"name":"Warsaw","jurisdiction":"Poland","region":"Europe","lat":52.23,"lon":21.01},
  {"name":"Zurich","jurisdiction":"Switzerland","region":"Europe","lat":47.37,"lon":8.54},
  {"name":"Stockholm","jurisdiction":"Sweden","region":"Europe","lat":59.33,"lon":18.07},
  {"name":"Helsinki","jurisdiction":"Finland","region":"Europe","lat":60.17,"lon":24.94},
  {"name":"Oslo","jurisdiction":"Norway","region":"Europe","lat":59.91,"lon":10.75},
  {"name":"Copenhagen","jurisdiction":"Denmark","region":"Europe","lat":55.68,"lon":12.57},
  {"name":"Brussels","jurisdiction":"Belgium","region":"Europe","lat":50.85,"lon":4.35},
  {"name":"Lisbon","jurisdiction":"Portugal","region":"Europe","lat":38.72,"lon":-9.14},
  {"name":"Prague","jurisdiction":"Czechia","region":"Europe","lat":50.08,"lon":14.44},

  {"name":"Dubai","jurisdiction":"UAE","region":"Middle East","lat":25.20,"lon":55.27},
  {"name":"Riyadh","jurisdiction":"Saudi Arabia","region":"Middle East","lat":24.71,"lon":46.68},
  {"name":"Doha","jurisdiction":"Qatar","region":"Middle East","lat":25.29,"lon":51.53},
  {"name":"Bahrain","jurisdiction":"Bahrain","region":"Middle East","lat":26.22,"lon":50.58},
  {"name":"Tel Aviv","jurisdiction":"Israel","region":"Middle East","lat":32.08,"lon":34.78},
  {"name":"Istanbul","jurisdiction":"Turkey","region":"Middle East","lat":41.01,"lon":28.97},

  {"name":"Johannesburg","jurisdiction":"South Africa","region":"Africa","lat":-26.20,"lon":28.05},
  {"name":"Cape Town","jurisdiction":"South Africa","region":"Africa","lat":-33.92,"lon":18.42},
  {"name":"Nairobi","jurisdiction":"Kenya","region":"Africa","lat":-1.29,"lon":36.82},
  {"name":"Lagos","jurisdiction":"Nigeria","region":"Africa","lat":6.46,"lon":3.39},
  {"name":"Casablanca","jurisdiction":"Morocco","region":"Africa","lat":33.57,"lon":-7.59},
  {"name":"Cairo","jurisdiction":"Egypt","region":"Africa","lat":30.04,"lon":31.24},

  {"name":"Mumbai","jurisdiction":"India","region":"Asia","lat":19.08,"lon":72.88},
  {"name":"Hyderabad","jurisdiction":"India","region":"Asia","lat":17.39,"lon":78.49},
  {"name":"Singapore","jurisdiction":"Singapore","region":"Asia","lat":1.35,"lon":103.82},
  {"name":"Tokyo","jurisdiction":"Japan","region":"Asia","lat":35.68,"lon":139.69},
  {"name":"Osaka","jurisdiction":"Japan","region":"Asia","lat":34.69,"lon":135.50},
  {"name":"Seoul","jurisdiction":"South Korea","region":"Asia","lat":37.57,"lon":126.98},
  {"name":"Taipei","jurisdiction":"Taiwan","region":"Asia","lat":25.03,"lon":121.57},
  {"name":"Hong Kong","jurisdiction":"Hong Kong","region":"Asia","lat":22.32,"lon":114.17},
  {"name":"Kuala Lumpur","jurisdiction":"Malaysia","region":"Asia","lat":3.14,"lon":101.69},
  {"name":"Jakarta","jurisdiction":"Indonesia","region":"Asia","lat":-6.21,"lon":106.85},
  {"name":"Bangkok","jurisdiction":"Thailand","region":"Asia","lat":13.76,"lon":100.50},
  {"name":"Manila","jurisdiction":"Philippines","region":"Asia","lat":14.60,"lon":120.98},
  {"name":"Hanoi","jurisdiction":"Vietnam","region":"Asia","lat":21.03,"lon":105.85},
  {"name":"Shanghai","jurisdiction":"China","region":"Asia","lat":31.23,"lon":121.47},
  {"name":"Beijing","jurisdiction":"China","region":"Asia","lat":39.90,"lon":116.40},
  {"name":"Shenzhen","jurisdiction":"China","region":"Asia","lat":22.54,"lon":114.05},

  {"name":"Sydney","jurisdiction":"Australia","region":"Oceania","lat":-33.87,"lon":151.21},
  {"name":"Melbourne","jurisdiction":"Australia","region":"Oceania","lat":-37.81,"lon":144.96},
  {"name":"Auckland","jurisdiction":"New Zealand","region":"Oceania","lat":-36.85,"lon":174.76},

  {"name":"São Paulo","jurisdiction":"Brazil","region":"Latin America","lat":-23.55,"lon":-46.63},
  {"name":"Santiago","jurisdiction":"Chile","region":"Latin America","lat":-33.45,"lon":-70.67},
  {"name":"Buenos Aires","jurisdiction":"Argentina","region":"Latin America","lat":-34.61,"lon":-58.38},
  {"name":"Bogotá","jurisdiction":"Colombia","region":"Latin America","lat":4.71,"lon":-74.07},
  {"name":"Lima","jurisdiction":"Peru","region":"Latin America","lat":-12.05,"lon":-77.04}
]

